{
    "type": "FeatureCollection",
    "features": [
        {
            "type": "Feature",
            "geometry": {
                "type": "Point",
                "coordinates": [
                    124.90477,
                    -9.07468
                ]
            },
            "properties": {
                "name": "A. A. Bere Tallo Airport",
                "iata_code": "ABU",
                "icao_code": "WATA",
                "country_code": "ID"
            }
        },
        {
            "type": "Feature",
            "geometry": {
                "type": "Point",
                "coordinates": [
                    -8.37726,
                    43.30206
                ]
            },
            "properties": {
                "name": "A Coruna Airport",
                "iata_code": "LCG",
                "icao_code": "LECO",
                "country_code": "ES"
            }
        },
        {
            "type": "Feature",
            "geometry": {
                "type": "Point",
                "coordinates": [
                    -94.70668,
                    31.57788
                ]
            },
            "properties": {
                "name": "A L Mangham Jr. Regional Airport",
                "iata_code": "OCH",
                "icao_code": "KOCH",
                "country_code": "US"
            }
        },
        {
            "type": "Feature",
            "geometry": {
                "type": "Point",
                "coordinates": [
                    -77.31809,
                    38.06968
                ]
            },
            "properties": {
                "name": "A P Hill Army Airfield (Fort A P Hill)",
                "iata_code": "APH",
                "icao_code": "KAPH",
                "country_code": "US"
            }
        },
        {
            "type": "Feature",
            "geometry": {
                "type": "Point",
                "coordinates": [
                    6.18844,
                    50.82345
                ]
            },
            "properties": {
                "name": "Aachen-Merzbrueck Airport",
                "iata_code": "AAH",
                "icao_code": "EDKA",
                "country_code": "DE"
            }
        },
        {
            "type": "Feature",
            "geometry": {
                "type": "Point",
                "coordinates": [
                    9.84916,
                    57.09279
                ]
            },
            "properties": {
                "name": "Aalborg Airport",
                "iata_code": "AAL",
                "icao_code": "EKYT",
                "country_code": "DK"
            }
        },
        {
            "type": "Feature",
            "geometry": {
                "type": "Point",
                "coordinates": [
                    -44.28816,
                    60.15207
                ]
            },
            "properties": {
                "name": "Aappilattoq Kujalleq Heliport",
                "iata_code": "QUV",
                "icao_code": "BGAQ",
                "country_code": "GL"
            }
        },
        {
            "type": "Feature",
            "geometry": {
                "type": "Point",
                "coordinates": [
                    -55.5982,
                    72.88392
                ]
            },
            "properties": {
                "name": "Aappilattoq Upernavik Heliport",
                "iata_code": "AOQ",
                "icao_code": "BGAG",
                "country_code": "GL"
            }
        },
        {
            "type": "Feature",
            "geometry": {
                "type": "Point",
                "coordinates": [
                    10.62627,
                    56.3023
                ]
            },
            "properties": {
                "name": "Aarhus Airport",
                "iata_code": "AAR",
                "icao_code": "EKAH",
                "country_code": "DK"
            }
        },
        {
            "type": "Feature",
            "geometry": {
                "type": "Point",
                "coordinates": [
                    -52.78854,
                    68.72134
                ]
            },
            "properties": {
                "name": "Aasiaat Airport",
                "iata_code": "JEG",
                "icao_code": "BGAA",
                "country_code": "GL"
            }
        },
        {
            "type": "Feature",
            "geometry": {
                "type": "Point",
                "coordinates": [
                    41.8542,
                    9.6247
                ]
            },
            "properties": {
                "name": "Aba Tenna Dejazmach Yilma International Airport",
                "iata_code": "DIR",
                "icao_code": "HADR",
                "country_code": "ET"
            }
        },
        {
            "type": "Feature",
            "geometry": {
                "type": "Point",
                "coordinates": [
                    48.22833,
                    30.37111
                ]
            },
            "properties": {
                "name": "Abadan International Airport",
                "iata_code": "ABD",
                "icao_code": "OIAA",
                "country_code": "IR"
            }
        },
        {
            "type": "Feature",
            "geometry": {
                "type": "Point",
                "coordinates": [
                    173.04214,
                    1.79807
                ]
            },
            "properties": {
                "name": "Abaiang Atoll Airport",
                "iata_code": "ABF",
                "icao_code": "NGAB",
                "country_code": "KI"
            }
        },
        {
            "type": "Feature",
            "geometry": {
                "type": "Point",
                "coordinates": [
                    91.385,
                    53.74
                ]
            },
            "properties": {
                "name": "Abakan International Airport",
                "iata_code": "ABA",
                "icao_code": "UNAA",
                "country_code": "RU"
            }
        },
        {
            "type": "Feature",
            "geometry": {
                "type": "Point",
                "coordinates": [
                    -91.112751,
                    -14.735092
                ]
            },
            "properties": {
                "name": "Aban Uqua Airportse",
                "iata_code": "QKA",
                "icao_code": "KQKA",
                "country_code": "US"
            }
        },
        {
            "type": "Feature",
            "geometry": {
                "type": "Point",
                "coordinates": [
                    -14.2,
                    16.63331
                ]
            },
            "properties": {
                "name": "Abbaye Airport",
                "iata_code": "BGH",
                "icao_code": "GQNE",
                "country_code": "MR"
            }
        },
        {
            "type": "Feature",
            "geometry": {
                "type": "Point",
                "coordinates": [
                    1.83189,
                    50.14349
                ]
            },
            "properties": {
                "name": "Abbeville Airport",
                "iata_code": "XAB",
                "icao_code": "LFOI",
                "country_code": "FR"
            }
        },
        {
            "type": "Feature",
            "geometry": {
                "type": "Point",
                "coordinates": [
                    -122.37735,
                    49.02529
                ]
            },
            "properties": {
                "name": "Abbotsford International Airport",
                "iata_code": "YXX",
                "icao_code": "CYXX",
                "country_code": "CA"
            }
        },
        {
            "type": "Feature",
            "geometry": {
                "type": "Point",
                "coordinates": [
                    43.17691,
                    16.011
                ]
            },
            "properties": {
                "name": "Abbs Airport",
                "iata_code": "EAB",
                "icao_code": "OYAB",
                "country_code": "YE"
            }
        },
        {
            "type": "Feature",
            "geometry": {
                "type": "Point",
                "coordinates": [
                    1.46315,
                    35.34114
                ]
            },
            "properties": {
                "name": "Abdelhafid Boussouf Bou Chekif Airport",
                "iata_code": "TID",
                "icao_code": "DAOB",
                "country_code": "DZ"
            }
        },
        {
            "type": "Feature",
            "geometry": {
                "type": "Point",
                "coordinates": [
                    112.7146,
                    -7.9264
                ]
            },
            "properties": {
                "name": "Abdul Rachman Saleh Airport",
                "iata_code": "MLG",
                "icao_code": "WARA",
                "country_code": "ID"
            }
        },
        {
            "type": "Feature",
            "geometry": {
                "type": "Point",
                "coordinates": [
                    47.4547,
                    6.78083
                ]
            },
            "properties": {
                "name": "Abdullahi Yusuf International Airport",
                "iata_code": "GLK",
                "icao_code": "HCMR",
                "country_code": "SO"
            }
        },
        {
            "type": "Feature",
            "geometry": {
                "type": "Point",
                "coordinates": [
                    20.85,
                    13.85
                ]
            },
            "properties": {
                "name": "Abeche",
                "iata_code": "AEH",
                "icao_code": "FTTC",
                "country_code": "TD"
            }
        },
        {
            "type": "Feature",
            "geometry": {
                "type": "Point",
                "coordinates": [
                    39.22489,
                    -6.22203
                ]
            },
            "properties": {
                "name": "Abeid Amani Karume International Airport",
                "iata_code": "ZNZ",
                "icao_code": "HTZA",
                "country_code": "TZ"
            }
        },
        {
            "type": "Feature",
            "geometry": {
                "type": "Point",
                "coordinates": [
                    -79.94382,
                    22.4919
                ]
            },
            "properties": {
                "name": "Abel Santamaria Airport",
                "iata_code": "SNU",
                "icao_code": "MUSC",
                "country_code": "CU"
            }
        },
        {
            "type": "Feature",
            "geometry": {
                "type": "Point",
                "coordinates": [
                    173.82624,
                    0.49133
                ]
            },
            "properties": {
                "name": "Abemama Airport",
                "iata_code": "AEA",
                "icao_code": "NGTB",
                "country_code": "KI"
            }
        },
        {
            "type": "Feature",
            "geometry": {
                "type": "Point",
                "coordinates": [
                    -3.47028,
                    6.71556
                ]
            },
            "properties": {
                "name": "Abengourou Airport",
                "iata_code": "OGO",
                "icao_code": "DIAU",
                "country_code": "CI"
            }
        },
        {
            "type": "Feature",
            "geometry": {
                "type": "Point",
                "coordinates": [
                    -2.19778,
                    57.20194
                ]
            },
            "properties": {
                "name": "Aberdeen International Airport",
                "iata_code": "ABZ",
                "icao_code": "EGPD",
                "country_code": "GB"
            }
        },
        {
            "type": "Feature",
            "geometry": {
                "type": "Point",
                "coordinates": [
                    -98.42148,
                    45.4497
                ]
            },
            "properties": {
                "name": "Aberdeen Regional Airport",
                "iata_code": "ABR",
                "icao_code": "KABR",
                "country_code": "US"
            }
        },
        {
            "type": "Feature",
            "geometry": {
                "type": "Point",
                "coordinates": [
                    42.65662,
                    18.24037
                ]
            },
            "properties": {
                "name": "Abha Regional Airport",
                "iata_code": "AHB",
                "icao_code": "OEAB",
                "country_code": "SA"
            }
        },
        {
            "type": "Feature",
            "geometry": {
                "type": "Point",
                "coordinates": [
                    -99.68203,
                    32.41124
                ]
            },
            "properties": {
                "name": "Abilene Regional Airport",
                "iata_code": "ABI",
                "icao_code": "KABI",
                "country_code": "US"
            }
        },
        {
            "type": "Feature",
            "geometry": {
                "type": "Point",
                "coordinates": [
                    143.18389,
                    -17.60856
                ]
            },
            "properties": {
                "name": "Abingdon Airport",
                "iata_code": "ABG",
                "icao_code": "YABI",
                "country_code": "AU"
            }
        },
        {
            "type": "Feature",
            "geometry": {
                "type": "Point",
                "coordinates": [
                    -3.2164,
                    5.43329
                ]
            },
            "properties": {
                "name": "Aboisso Airport",
                "iata_code": "ABO",
                "icao_code": "DIAO",
                "country_code": "CI"
            }
        },
        {
            "type": "Feature",
            "geometry": {
                "type": "Point",
                "coordinates": [
                    -106.42902,
                    31.63599
                ]
            },
            "properties": {
                "name": "Abraham Gonzalez International Airport",
                "iata_code": "CJS",
                "icao_code": "MMCS",
                "country_code": "MX"
            }
        },
        {
            "type": "Feature",
            "geometry": {
                "type": "Point",
                "coordinates": [
                    -89.67789,
                    39.8441
                ]
            },
            "properties": {
                "name": "Abraham Lincoln Capital Airport",
                "iata_code": "SPI",
                "icao_code": "KSPI",
                "country_code": "US"
            }
        },
        {
            "type": "Feature",
            "geometry": {
                "type": "Point",
                "coordinates": [
                    134.187,
                    -1.50845
                ]
            },
            "properties": {
                "name": "Abresso Airport",
                "iata_code": "RSK",
                "icao_code": "WASC",
                "country_code": "ID"
            }
        },
        {
            "type": "Feature",
            "geometry": {
                "type": "Point",
                "coordinates": [
                    14.18678,
                    42.43286
                ]
            },
            "properties": {
                "name": "Abruzzo Airport",
                "iata_code": "PSR",
                "icao_code": "LIBP",
                "country_code": "IT"
            }
        },
        {
            "type": "Feature",
            "geometry": {
                "type": "Point",
                "coordinates": [
                    54.45808,
                    24.42833
                ]
            },
            "properties": {
                "name": "Abu Dhabi Bateen Airport",
                "iata_code": "AZI",
                "icao_code": "OMAD",
                "country_code": "AE"
            }
        },
        {
            "type": "Feature",
            "geometry": {
                "type": "Point",
                "coordinates": [
                    54.65114,
                    24.43297
                ]
            },
            "properties": {
                "name": "Abu Dhabi International Airport",
                "iata_code": "AUH",
                "icao_code": "OMAA",
                "country_code": "AE"
            }
        },
        {
            "type": "Feature",
            "geometry": {
                "type": "Point",
                "coordinates": [
                    55.03361,
                    25.87583
                ]
            },
            "properties": {
                "name": "Abu Musa Airport",
                "iata_code": "AEU",
                "icao_code": "OIBA",
                "country_code": "IR"
            }
        },
        {
            "type": "Feature",
            "geometry": {
                "type": "Point",
                "coordinates": [
                    31.6117,
                    22.37571
                ]
            },
            "properties": {
                "name": "Abu Simbel Airport",
                "iata_code": "ABS",
                "icao_code": "HEBL",
                "country_code": "EG"
            }
        },
        {
            "type": "Feature",
            "geometry": {
                "type": "Point",
                "coordinates": [
                    -91.88373,
                    30.0377
                ]
            },
            "properties": {
                "name": "Acadiana Regional Airport",
                "iata_code": "ARA",
                "icao_code": "KARA",
                "country_code": "US"
            }
        },
        {
            "type": "Feature",
            "geometry": {
                "type": "Point",
                "coordinates": [
                    -69.23754,
                    9.55342
                ]
            },
            "properties": {
                "name": "Acarigua",
                "iata_code": "AGV",
                "icao_code": "SVAC",
                "country_code": "VE"
            }
        },
        {
            "type": "Feature",
            "geometry": {
                "type": "Point",
                "coordinates": [
                    -75.76106,
                    37.64318
                ]
            },
            "properties": {
                "name": "Accomack County Airport",
                "iata_code": "MFV",
                "icao_code": "KFMV",
                "country_code": "US"
            }
        },
        {
            "type": "Feature",
            "geometry": {
                "type": "Point",
                "coordinates": [
                    90.5708,
                    56.2683
                ]
            },
            "properties": {
                "name": "Achinsk Airport",
                "iata_code": "ACS",
                "icao_code": "UNKS",
                "country_code": "RU"
            }
        },
        {
            "type": "Feature",
            "geometry": {
                "type": "Point",
                "coordinates": [
                    110.3753,
                    -6.97261
                ]
            },
            "properties": {
                "name": "Achmad Yani International Airport",
                "iata_code": "SRG",
                "icao_code": "WARS",
                "country_code": "ID"
            }
        },
        {
            "type": "Feature",
            "geometry": {
                "type": "Point",
                "coordinates": [
                    -96.6714,
                    34.80314
                ]
            },
            "properties": {
                "name": "Ada Municipal Airport",
                "iata_code": "ADT",
                "icao_code": "KADH",
                "country_code": "US"
            }
        },
        {
            "type": "Feature",
            "geometry": {
                "type": "Point",
                "coordinates": [
                    -176.64603,
                    51.87796
                ]
            },
            "properties": {
                "name": "Adak Airport",
                "iata_code": "ADK",
                "icao_code": "PADK",
                "country_code": "US"
            }
        },
        {
            "type": "Feature",
            "geometry": {
                "type": "Point",
                "coordinates": [
                    57.3833,
                    22.4972
                ]
            },
            "properties": {
                "name": "Adam Airport",
                "iata_code": "AOM",
                "icao_code": "OOAD",
                "country_code": "OM"
            }
        },
        {
            "type": "Feature",
            "geometry": {
                "type": "Point",
                "coordinates": [
                    75.7564,
                    31.43569
                ]
            },
            "properties": {
                "name": "Adampur Airport",
                "iata_code": "AIP",
                "icao_code": "VIAX",
                "country_code": "IN"
            }
        },
        {
            "type": "Feature",
            "geometry": {
                "type": "Point",
                "coordinates": [
                    75.758825,
                    31.433758
                ]
            },
            "properties": {
                "name": "Adampur",
                "iata_code": "AIP",
                "icao_code": "VIAX",
                "country_code": "IN"
            }
        },
        {
            "type": "Feature",
            "geometry": {
                "type": "Point",
                "coordinates": [
                    -92.22431,
                    34.73009
                ]
            },
            "properties": {
                "name": "Adams Field",
                "iata_code": "LIT",
                "icao_code": "KLIT",
                "country_code": "US"
            }
        },
        {
            "type": "Feature",
            "geometry": {
                "type": "Point",
                "coordinates": [
                    35.28039,
                    36.98217
                ]
            },
            "properties": {
                "name": "Adana Sakirpasa Airport",
                "iata_code": "ADA",
                "icao_code": "LTAF",
                "country_code": "TR"
            }
        },
        {
            "type": "Feature",
            "geometry": {
                "type": "Point",
                "coordinates": [
                    -85.92552,
                    37.68945
                ]
            },
            "properties": {
                "name": "Addington Field",
                "iata_code": "EKX",
                "icao_code": "KEKX",
                "country_code": "US"
            }
        },
        {
            "type": "Feature",
            "geometry": {
                "type": "Point",
                "coordinates": [
                    38.79805,
                    8.97792
                ]
            },
            "properties": {
                "name": "Addis Ababa Bole International Airport",
                "iata_code": "ADD",
                "icao_code": "HAAB",
                "country_code": "ET"
            }
        },
        {
            "type": "Feature",
            "geometry": {
                "type": "Point",
                "coordinates": [
                    -96.83667,
                    32.96846
                ]
            },
            "properties": {
                "name": "Addison Airport",
                "iata_code": "ADS",
                "icao_code": "KADS",
                "country_code": "US"
            }
        },
        {
            "type": "Feature",
            "geometry": {
                "type": "Point",
                "coordinates": [
                    138.53056,
                    -34.945
                ]
            },
            "properties": {
                "name": "Adelaide Airport",
                "iata_code": "ADL",
                "icao_code": "YPAD",
                "country_code": "AU"
            }
        },
        {
            "type": "Feature",
            "geometry": {
                "type": "Point",
                "coordinates": [
                    45.3041,
                    2.01575
                ]
            },
            "properties": {
                "name": "Aden Adde International Airport",
                "iata_code": "MGQ",
                "icao_code": "HCMM",
                "country_code": "SO"
            }
        },
        {
            "type": "Feature",
            "geometry": {
                "type": "Point",
                "coordinates": [
                    45.02879,
                    12.82954
                ]
            },
            "properties": {
                "name": "Aden International Airport",
                "iata_code": "ADE",
                "icao_code": "OYAA",
                "country_code": "YE"
            }
        },
        {
            "type": "Feature",
            "geometry": {
                "type": "Point",
                "coordinates": [
                    -74.20483,
                    44.38025
                ]
            },
            "properties": {
                "name": "Adirondack Regional Airport",
                "iata_code": "SLK",
                "icao_code": "KSLK",
                "country_code": "US"
            }
        },
        {
            "type": "Feature",
            "geometry": {
                "type": "Point",
                "coordinates": [
                    110.43217,
                    -7.78813
                ]
            },
            "properties": {
                "name": "Adisucipto International Airport",
                "iata_code": "JOG",
                "icao_code": "WARJ",
                "country_code": "ID"
            }
        },
        {
            "type": "Feature",
            "geometry": {
                "type": "Point",
                "coordinates": [
                    110.74962,
                    -7.51462
                ]
            },
            "properties": {
                "name": "Adisumarmo International Airport",
                "iata_code": "SOC",
                "icao_code": "WAHQ",
                "country_code": "ID"
            }
        },
        {
            "type": "Feature",
            "geometry": {
                "type": "Point",
                "coordinates": [
                    38.46914,
                    37.73135
                ]
            },
            "properties": {
                "name": "Adiyaman Airport",
                "iata_code": "ADF",
                "icao_code": "LTCP",
                "country_code": "TR"
            }
        },
        {
            "type": "Feature",
            "geometry": {
                "type": "Point",
                "coordinates": [
                    -3.56948,
                    40.49181
                ]
            },
            "properties": {
                "name": "Adolfo Suarez Madrid-Barajas Airport",
                "iata_code": "MAD",
                "icao_code": "LEMD",
                "country_code": "ES"
            }
        },
        {
            "type": "Feature",
            "geometry": {
                "type": "Point",
                "coordinates": [
                    99.43193,
                    1.39924
                ]
            },
            "properties": {
                "name": "Aek Godang Airport",
                "iata_code": "AEG",
                "icao_code": "WIME",
                "country_code": "ID"
            }
        },
        {
            "type": "Feature",
            "geometry": {
                "type": "Point",
                "coordinates": [
                    12.85555,
                    56.29597
                ]
            },
            "properties": {
                "name": "AEngelholm-Helsingborg Airport",
                "iata_code": "AGH",
                "icao_code": "ESTA",
                "country_code": "SE"
            }
        },
        {
            "type": "Feature",
            "geometry": {
                "type": "Point",
                "coordinates": [
                    -43.4603,
                    -22.7453
                ]
            },
            "properties": {
                "name": "Aeroclube Airport",
                "iata_code": "QNV",
                "icao_code": "SDNY",
                "country_code": "BR"
            }
        },
        {
            "type": "Feature",
            "geometry": {
                "type": "Point",
                "coordinates": [
                    -3.20126,
                    47.32526
                ]
            },
            "properties": {
                "name": "Aerodrome de Belle-Ile",
                "iata_code": "BIC",
                "icao_code": "LFEA",
                "country_code": "FR"
            }
        },
        {
            "type": "Feature",
            "geometry": {
                "type": "Point",
                "coordinates": [
                    -72.03137,
                    -36.5825
                ]
            },
            "properties": {
                "name": "Aerodromo Bernardo O'Higgins",
                "iata_code": "YAI",
                "icao_code": "SCCH",
                "country_code": "CL"
            }
        },
        {
            "type": "Feature",
            "geometry": {
                "type": "Point",
                "coordinates": [
                    -38.91019,
                    -13.39018
                ]
            },
            "properties": {
                "name": "Aerodromo de Lorenzo",
                "iata_code": "MXQ",
                "icao_code": "SNCL",
                "country_code": "BR"
            }
        },
        {
            "type": "Feature",
            "geometry": {
                "type": "Point",
                "coordinates": [
                    -40.07303,
                    -19.35848
                ]
            },
            "properties": {
                "name": "Aerodromo Municipal de Linhares",
                "iata_code": "LHN",
                "icao_code": "SNLN",
                "country_code": "BR"
            }
        },
        {
            "type": "Feature",
            "geometry": {
                "type": "Point",
                "coordinates": [
                    151.64799,
                    -33.0667
                ]
            },
            "properties": {
                "name": "Aeropelican Airport",
                "iata_code": "BEO",
                "icao_code": "YPEC",
                "country_code": "AU"
            }
        },
        {
            "type": "Feature",
            "geometry": {
                "type": "Point",
                "coordinates": [
                    2.76055,
                    41.90097
                ]
            },
            "properties": {
                "name": "Aeroport de Girona - Costa Brava",
                "iata_code": "GRO",
                "icao_code": "LEGE",
                "country_code": "ES"
            }
        },
        {
            "type": "Feature",
            "geometry": {
                "type": "Point",
                "coordinates": [
                    6.10921,
                    46.23756
                ]
            },
            "properties": {
                "name": "Aeroport Geneve-Cointrin",
                "iata_code": "GVA",
                "icao_code": "LSGG",
                "country_code": "CH"
            }
        },
        {
            "type": "Feature",
            "geometry": {
                "type": "Point",
                "coordinates": [
                    -56.0363,
                    -13.81357
                ]
            },
            "properties": {
                "name": "Aeroporto Brigadeiro Eduardo Gomes",
                "iata_code": "NVM",
                "icao_code": "SDNM",
                "country_code": "BR"
            }
        },
        {
            "type": "Feature",
            "geometry": {
                "type": "Point",
                "coordinates": [
                    -53.68815,
                    -29.71136
                ]
            },
            "properties": {
                "name": "Aeroporto de Santa Maria",
                "iata_code": "RIA",
                "icao_code": "SBSM",
                "country_code": "BR"
            }
        },
        {
            "type": "Feature",
            "geometry": {
                "type": "Point",
                "coordinates": [
                    12.61808,
                    35.49791
                ]
            },
            "properties": {
                "name": "Aeroporto di Lampedusa",
                "iata_code": "LMP",
                "icao_code": "LICD",
                "country_code": "IT"
            }
        },
        {
            "type": "Feature",
            "geometry": {
                "type": "Point",
                "coordinates": [
                    -42.32323,
                    -16.20867
                ]
            },
            "properties": {
                "name": "Aeroporto Municipal de Salinas",
                "iata_code": "IAL",
                "icao_code": "SNSS",
                "country_code": "BR"
            }
        },
        {
            "type": "Feature",
            "geometry": {
                "type": "Point",
                "coordinates": [
                    27.78148,
                    47.83811
                ]
            },
            "properties": {
                "name": "Aeroportul International \"Balti-Leadoveni\"",
                "iata_code": "BZY",
                "icao_code": "LUBL",
                "country_code": "MD"
            }
        },
        {
            "type": "Feature",
            "geometry": {
                "type": "Point",
                "coordinates": [
                    -71.38833,
                    7.01917
                ]
            },
            "properties": {
                "name": "Aeropuerto Arsenio Valderrama",
                "iata_code": "ARQ",
                "icao_code": "SKAT",
                "country_code": "CO"
            }
        },
        {
            "type": "Feature",
            "geometry": {
                "type": "Point",
                "coordinates": [
                    -70.4451,
                    -23.44448
                ]
            },
            "properties": {
                "name": "Aeropuerto Cerro Moreno",
                "iata_code": "ANF",
                "icao_code": "SCFA",
                "country_code": "CL"
            }
        },
        {
            "type": "Feature",
            "geometry": {
                "type": "Point",
                "coordinates": [
                    -73.97472,
                    9.04556
                ]
            },
            "properties": {
                "name": "Aeropuerto El Banco",
                "iata_code": "ELB",
                "icao_code": "SKBC",
                "country_code": "CO"
            }
        },
        {
            "type": "Feature",
            "geometry": {
                "type": "Point",
                "coordinates": [
                    -71.75972,
                    6.45111
                ]
            },
            "properties": {
                "name": "Aeropuerto Gabriel Vargas Santos",
                "iata_code": "TME",
                "icao_code": "SKTM",
                "country_code": "CO"
            }
        },
        {
            "type": "Feature",
            "geometry": {
                "type": "Point",
                "coordinates": [
                    -89.05573,
                    13.44095
                ]
            },
            "properties": {
                "name": "Aeropuerto Internacional El Salvador",
                "iata_code": "SAL",
                "icao_code": "MSLP",
                "country_code": "SV"
            }
        },
        {
            "type": "Feature",
            "geometry": {
                "type": "Point",
                "coordinates": [
                    -57.98529,
                    -31.43848
                ]
            },
            "properties": {
                "name": "Aeropuerto Nueva Hesperides",
                "iata_code": "STY",
                "icao_code": "SUSO",
                "country_code": "UY"
            }
        },
        {
            "type": "Feature",
            "geometry": {
                "type": "Point",
                "coordinates": [
                    -70.7375,
                    7.06889
                ]
            },
            "properties": {
                "name": "Aeropuerto Santiago Perez Quiroz",
                "iata_code": "AUC",
                "icao_code": "SKUC",
                "country_code": "CO"
            }
        },
        {
            "type": "Feature",
            "geometry": {
                "type": "Point",
                "coordinates": [
                    31.05483,
                    -24.36704
                ]
            },
            "properties": {
                "name": "AFB Hoedspruit",
                "iata_code": "HDS",
                "icao_code": "FAHS",
                "country_code": "ZA"
            }
        },
        {
            "type": "Feature",
            "geometry": {
                "type": "Point",
                "coordinates": [
                    18.16028,
                    -32.96889
                ]
            },
            "properties": {
                "name": "AFB Langebaanweg",
                "iata_code": "SDB",
                "icao_code": "FALW",
                "country_code": "ZA"
            }
        },
        {
            "type": "Feature",
            "geometry": {
                "type": "Point",
                "coordinates": [
                    20.25068,
                    -34.55486
                ]
            },
            "properties": {
                "name": "AFB Overberg",
                "iata_code": "OVG",
                "icao_code": "FAOB",
                "country_code": "ZA"
            }
        },
        {
            "type": "Feature",
            "geometry": {
                "type": "Point",
                "coordinates": [
                    148.39487,
                    -9.13176
                ]
            },
            "properties": {
                "name": "Afore Airport",
                "iata_code": "AFR",
                "icao_code": "AYAF",
                "country_code": "PG"
            }
        },
        {
            "type": "Feature",
            "geometry": {
                "type": "Point",
                "coordinates": [
                    -110.94075,
                    42.70924
                ]
            },
            "properties": {
                "name": "Afton Municipal Airport",
                "iata_code": "AFO",
                "icao_code": "KAFO",
                "country_code": "US"
            }
        },
        {
            "type": "Feature",
            "geometry": {
                "type": "Point",
                "coordinates": [
                    160.94855,
                    -9.19145
                ]
            },
            "properties": {
                "name": "Afutara Aerodrome",
                "iata_code": "AFT",
                "icao_code": "AGAF",
                "country_code": "SB"
            }
        },
        {
            "type": "Feature",
            "geometry": {
                "type": "Point",
                "coordinates": [
                    30.60111,
                    38.72642
                ]
            },
            "properties": {
                "name": "Afyon Airport",
                "iata_code": "AFY",
                "icao_code": "LTAH",
                "country_code": "TR"
            }
        },
        {
            "type": "Feature",
            "geometry": {
                "type": "Point",
                "coordinates": [
                    -9.41307,
                    30.325
                ]
            },
            "properties": {
                "name": "Agadir-Al Massira Airport",
                "iata_code": "AGA",
                "icao_code": "GMAD",
                "country_code": "MA"
            }
        },
        {
            "type": "Feature",
            "geometry": {
                "type": "Point",
                "coordinates": [
                    91.24045,
                    23.88698
                ]
            },
            "properties": {
                "name": "Agartala Airport",
                "iata_code": "IXA",
                "icao_code": "VEAT",
                "country_code": "IN"
            }
        },
        {
            "type": "Feature",
            "geometry": {
                "type": "Point",
                "coordinates": [
                    72.176,
                    10.8237
                ]
            },
            "properties": {
                "name": "Agatti Airport",
                "iata_code": "AGX",
                "icao_code": "VOAT",
                "country_code": "IN"
            }
        },
        {
            "type": "Feature",
            "geometry": {
                "type": "Point",
                "coordinates": [
                    149.38848,
                    -9.92775
                ]
            },
            "properties": {
                "name": "Agaun Airport",
                "iata_code": "AUP",
                "icao_code": "AYAG",
                "country_code": "PG"
            }
        },
        {
            "type": "Feature",
            "geometry": {
                "type": "Point",
                "coordinates": [
                    20.190833,
                    34.915278
                ]
            },
            "properties": {
                "name": "AGEDABIA",
                "iata_code": "QGG",
                "icao_code": "HLAG",
                "country_code": "LY"
            }
        },
        {
            "type": "Feature",
            "geometry": {
                "type": "Point",
                "coordinates": [
                    0.59056,
                    44.17472
                ]
            },
            "properties": {
                "name": "Agen-la-Garenne",
                "iata_code": "AGF",
                "icao_code": "LFBA",
                "country_code": "FR"
            }
        },
        {
            "type": "Feature",
            "geometry": {
                "type": "Point",
                "coordinates": [
                    18.81366,
                    -29.28191
                ]
            },
            "properties": {
                "name": "Aggeneys Airport",
                "iata_code": "AGZ",
                "icao_code": "FAAG",
                "country_code": "ZA"
            }
        },
        {
            "type": "Feature",
            "geometry": {
                "type": "Point",
                "coordinates": [
                    49.6869,
                    30.7391
                ]
            },
            "properties": {
                "name": "Aghajari Airport",
                "iata_code": "AKW",
                "icao_code": "OIAG",
                "country_code": "IR"
            }
        },
        {
            "type": "Feature",
            "geometry": {
                "type": "Point",
                "coordinates": [
                    -25.0906,
                    17.2028
                ]
            },
            "properties": {
                "name": "Agostinho Neto Airport",
                "iata_code": "NTO",
                "icao_code": "GVAN",
                "country_code": "CV"
            }
        },
        {
            "type": "Feature",
            "geometry": {
                "type": "Point",
                "coordinates": [
                    77.96089,
                    27.15583
                ]
            },
            "properties": {
                "name": "Agra Airport",
                "iata_code": "AGR",
                "icao_code": "VIAG",
                "country_code": "IN"
            }
        },
        {
            "type": "Feature",
            "geometry": {
                "type": "Point",
                "coordinates": [
                    43.02598,
                    39.65454
                ]
            },
            "properties": {
                "name": "Agri Airport",
                "iata_code": "AJI",
                "icao_code": "LTCO",
                "country_code": "TR"
            }
        },
        {
            "type": "Feature",
            "geometry": {
                "type": "Point",
                "coordinates": [
                    21.3512,
                    38.602
                ]
            },
            "properties": {
                "name": "Agrinion Airport",
                "iata_code": "AGQ",
                "icao_code": "LGAG",
                "country_code": "GR"
            }
        },
        {
            "type": "Feature",
            "geometry": {
                "type": "Point",
                "coordinates": [
                    -52.15432,
                    -14.02531
                ]
            },
            "properties": {
                "name": "Agua Boa Airport",
                "iata_code": "GGB",
                "icao_code": "SWHP",
                "country_code": "BR"
            }
        },
        {
            "type": "Feature",
            "geometry": {
                "type": "Point",
                "coordinates": [
                    -73.3583,
                    8.31506
                ]
            },
            "properties": {
                "name": "Aguas Claras Airport",
                "iata_code": "OCV",
                "icao_code": "SKOC",
                "country_code": "CO"
            }
        },
        {
            "type": "Feature",
            "geometry": {
                "type": "Point",
                "coordinates": [
                    -102.31786,
                    21.70556
                ]
            },
            "properties": {
                "name": "Aguascalientes International Airport",
                "iata_code": "AGU",
                "icao_code": "MMAS",
                "country_code": "MX"
            }
        },
        {
            "type": "Feature",
            "geometry": {
                "type": "Point",
                "coordinates": [
                    127.2403,
                    26.5928
                ]
            },
            "properties": {
                "name": "Aguni Island",
                "iata_code": "AGJ",
                "icao_code": "RORA",
                "country_code": "JP"
            }
        },
        {
            "type": "Feature",
            "geometry": {
                "type": "Point",
                "coordinates": [
                    -146.257,
                    -14.4281
                ]
            },
            "properties": {
                "name": "Ahe Airport",
                "iata_code": "AHE",
                "icao_code": "NTHE",
                "country_code": "PF"
            }
        },
        {
            "type": "Feature",
            "geometry": {
                "type": "Point",
                "coordinates": [
                    65.85035,
                    31.50737
                ]
            },
            "properties": {
                "name": "Ahmad Shah Baba International Airport",
                "iata_code": "KDH",
                "icao_code": "OAKN",
                "country_code": "AF"
            }
        },
        {
            "type": "Feature",
            "geometry": {
                "type": "Point",
                "coordinates": [
                    47.79078,
                    28.93956
                ]
            },
            "properties": {
                "name": "Ahmed Al Jaber Air Base",
                "iata_code": "XIJ",
                "icao_code": "OKAJ",
                "country_code": "KW"
            }
        },
        {
            "type": "Feature",
            "geometry": {
                "type": "Point",
                "coordinates": [
                    -84.3522,
                    15.4722
                ]
            },
            "properties": {
                "name": "Ahuas Airport",
                "iata_code": "AHS",
                "icao_code": "MHAH",
                "country_code": "HN"
            }
        },
        {
            "type": "Feature",
            "geometry": {
                "type": "Point",
                "coordinates": [
                    48.76195,
                    31.33743
                ]
            },
            "properties": {
                "name": "Ahwaz International Airport",
                "iata_code": "AWZ",
                "icao_code": "OIAW",
                "country_code": "IR"
            }
        },
        {
            "type": "Feature",
            "geometry": {
                "type": "Point",
                "coordinates": [
                    17.58,
                    -27.98
                ]
            },
            "properties": {
                "name": "Ai Ais",
                "iata_code": "AIW",
                "icao_code": "FYAA",
                "country_code": "NA"
            }
        },
        {
            "type": "Feature",
            "geometry": {
                "type": "Point",
                "coordinates": [
                    141.26736,
                    -7.34361
                ]
            },
            "properties": {
                "name": "Aiambak Airport",
                "iata_code": "AIH",
                "icao_code": "AYAK",
                "country_code": "PG"
            }
        },
        {
            "type": "Feature",
            "geometry": {
                "type": "Point",
                "coordinates": [
                    -81.67887,
                    33.64977
                ]
            },
            "properties": {
                "name": "Aiken Municipal Airport",
                "iata_code": "AIK",
                "icao_code": "KAIK",
                "country_code": "US"
            }
        },
        {
            "type": "Feature",
            "geometry": {
                "type": "Point",
                "coordinates": [
                    5.32562,
                    36.17838
                ]
            },
            "properties": {
                "name": "Ain Arnat Airport",
                "iata_code": "QSF",
                "icao_code": "DAAS",
                "country_code": "DZ"
            }
        },
        {
            "type": "Feature",
            "geometry": {
                "type": "Point",
                "coordinates": [
                    -99.99318,
                    42.57917
                ]
            },
            "properties": {
                "name": "Ainsworth Municipal Airport",
                "iata_code": "ANW",
                "icao_code": "KANW",
                "country_code": "US"
            }
        },
        {
            "type": "Feature",
            "geometry": {
                "type": "Point",
                "coordinates": [
                    144.732,
                    -5.14235
                ]
            },
            "properties": {
                "name": "Aiome Airport",
                "iata_code": "AIE",
                "icao_code": "AYAO",
                "country_code": "PG"
            }
        },
        {
            "type": "Feature",
            "geometry": {
                "type": "Point",
                "coordinates": [
                    -9.63788,
                    16.71129
                ]
            },
            "properties": {
                "name": "Aioun el Atrouss Airport",
                "iata_code": "AEO",
                "icao_code": "GQNA",
                "country_code": "MR"
            }
        },
        {
            "type": "Feature",
            "geometry": {
                "type": "Point",
                "coordinates": [
                    -59.3134,
                    2.48653
                ]
            },
            "properties": {
                "name": "Aishalton Airport",
                "iata_code": "AHL",
                "icao_code": "SYAH",
                "country_code": "GY"
            }
        },
        {
            "type": "Feature",
            "geometry": {
                "type": "Point",
                "coordinates": [
                    142.34608,
                    -3.14197
                ]
            },
            "properties": {
                "name": "Aitape Airport",
                "iata_code": "ATP",
                "icao_code": "AYAI",
                "country_code": "PG"
            }
        },
        {
            "type": "Feature",
            "geometry": {
                "type": "Point",
                "coordinates": [
                    -159.7649,
                    -18.83079
                ]
            },
            "properties": {
                "name": "Aitutaki Airstrip",
                "iata_code": "AIT",
                "icao_code": "NCAI",
                "country_code": "CK"
            }
        },
        {
            "type": "Feature",
            "geometry": {
                "type": "Point",
                "coordinates": [
                    5.36778,
                    43.50555
                ]
            },
            "properties": {
                "name": "Aix-Les Milles",
                "iata_code": "QXB",
                "icao_code": "LFMA",
                "country_code": "FR"
            }
        },
        {
            "type": "Feature",
            "geometry": {
                "type": "Point",
                "coordinates": [
                    145.90402,
                    -6.33786
                ]
            },
            "properties": {
                "name": "Aiyura Airport",
                "iata_code": "AYU",
                "icao_code": "AYAY",
                "country_code": "PG"
            }
        },
        {
            "type": "Feature",
            "geometry": {
                "type": "Point",
                "coordinates": [
                    92.62024,
                    23.83788
                ]
            },
            "properties": {
                "name": "Aizawl Lengpui Airport",
                "iata_code": "AJL",
                "icao_code": "VEAZ",
                "country_code": "IN"
            }
        },
        {
            "type": "Feature",
            "geometry": {
                "type": "Point",
                "coordinates": [
                    -122.67814,
                    48.25154
                ]
            },
            "properties": {
                "name": "AJ Eisenberg Airport",
                "iata_code": "ODW",
                "icao_code": "KOKH",
                "country_code": "US"
            }
        },
        {
            "type": "Feature",
            "geometry": {
                "type": "Point",
                "coordinates": [
                    8.80292,
                    41.92364
                ]
            },
            "properties": {
                "name": "Ajaccio Napoleon Bonaparte Airport",
                "iata_code": "AJA",
                "icao_code": "LFKJ",
                "country_code": "FR"
            }
        },
        {
            "type": "Feature",
            "geometry": {
                "type": "Point",
                "coordinates": [
                    74.81329,
                    26.59114
                ]
            },
            "properties": {
                "name": "Ajmer Kishangarh Airport",
                "iata_code": "KQH",
                "icao_code": "VIKG",
                "country_code": "IN"
            }
        },
        {
            "type": "Feature",
            "geometry": {
                "type": "Point",
                "coordinates": [
                    -154.18083,
                    56.94003
                ]
            },
            "properties": {
                "name": "Akhiok Airport",
                "iata_code": "AKK",
                "icao_code": "PAKH",
                "country_code": "US"
            }
        },
        {
            "type": "Feature",
            "geometry": {
                "type": "Point",
                "coordinates": [
                    -161.22702,
                    60.90481
                ]
            },
            "properties": {
                "name": "Akiak Airport",
                "iata_code": "AKI",
                "icao_code": "PFAK",
                "country_code": "US"
            }
        },
        {
            "type": "Feature",
            "geometry": {
                "type": "Point",
                "coordinates": [
                    13.9036,
                    -1.13967
                ]
            },
            "properties": {
                "name": "Akieni Airport",
                "iata_code": "AKE",
                "icao_code": "FOGA",
                "country_code": "GA"
            }
        },
        {
            "type": "Feature",
            "geometry": {
                "type": "Point",
                "coordinates": [
                    140.21861,
                    39.61556
                ]
            },
            "properties": {
                "name": "Akita Airport",
                "iata_code": "AXT",
                "icao_code": "RJSK",
                "country_code": "JP"
            }
        },
        {
            "type": "Feature",
            "geometry": {
                "type": "Point",
                "coordinates": [
                    -14.36667,
                    19.75
                ]
            },
            "properties": {
                "name": "Akjoujt",
                "iata_code": "AJJ",
                "icao_code": "GQNJ",
                "country_code": "MR"
            }
        },
        {
            "type": "Feature",
            "geometry": {
                "type": "Point",
                "coordinates": [
                    -135.00583,
                    68.22333
                ]
            },
            "properties": {
                "name": "Aklavik/Freddie Carmichael Airport",
                "iata_code": "LAK",
                "icao_code": "CYKD",
                "country_code": "CA"
            }
        },
        {
            "type": "Feature",
            "geometry": {
                "type": "Point",
                "coordinates": [
                    77.05863,
                    20.69901
                ]
            },
            "properties": {
                "name": "Akola Airport",
                "iata_code": "AKD",
                "icao_code": "VAAK",
                "country_code": "IN"
            }
        },
        {
            "type": "Feature",
            "geometry": {
                "type": "Point",
                "coordinates": [
                    -81.44234,
                    40.91617
                ]
            },
            "properties": {
                "name": "Akron-Canton Regional Airport",
                "iata_code": "CAK",
                "icao_code": "KCAK",
                "country_code": "US"
            }
        },
        {
            "type": "Feature",
            "geometry": {
                "type": "Point",
                "coordinates": [
                    -81.46678,
                    41.03728
                ]
            },
            "properties": {
                "name": "Akron Fulton International Airport",
                "iata_code": "AKC",
                "icao_code": "KAKR",
                "country_code": "US"
            }
        },
        {
            "type": "Feature",
            "geometry": {
                "type": "Point",
                "coordinates": [
                    -103.22244,
                    40.17526
                ]
            },
            "properties": {
                "name": "Akron-Washington County Airport",
                "iata_code": "AKO",
                "icao_code": "KAKO",
                "country_code": "US"
            }
        },
        {
            "type": "Feature",
            "geometry": {
                "type": "Point",
                "coordinates": [
                    32.98942,
                    34.59012
                ]
            },
            "properties": {
                "name": "Akrotiri Airfield",
                "iata_code": "AKT",
                "icao_code": "LCRA",
                "country_code": "GB"
            }
        },
        {
            "type": "Feature",
            "geometry": {
                "type": "Point",
                "coordinates": [
                    80.2917,
                    41.2625
                ]
            },
            "properties": {
                "name": "Aksu Airport",
                "iata_code": "AKU",
                "icao_code": "ZWAK",
                "country_code": "CN"
            }
        },
        {
            "type": "Feature",
            "geometry": {
                "type": "Point",
                "coordinates": [
                    51.09198,
                    43.86005
                ]
            },
            "properties": {
                "name": "Aktau Airport",
                "iata_code": "SCO",
                "icao_code": "UATE",
                "country_code": "KZ"
            }
        },
        {
            "type": "Feature",
            "geometry": {
                "type": "Point",
                "coordinates": [
                    20.76531,
                    38.92547
                ]
            },
            "properties": {
                "name": "Aktion Airport",
                "iata_code": "PVK",
                "icao_code": "LGPZ",
                "country_code": "GR"
            }
        },
        {
            "type": "Feature",
            "geometry": {
                "type": "Point",
                "coordinates": [
                    57.20667,
                    50.24583
                ]
            },
            "properties": {
                "name": "Aktobe International Airport",
                "iata_code": "AKX",
                "icao_code": "UATT",
                "country_code": "KZ"
            }
        },
        {
            "type": "Feature",
            "geometry": {
                "type": "Point",
                "coordinates": [
                    -78.14861,
                    60.81861
                ]
            },
            "properties": {
                "name": "Akulivik Airport",
                "iata_code": "AKV",
                "icao_code": "CYKO",
                "country_code": "CA"
            }
        },
        {
            "type": "Feature",
            "geometry": {
                "type": "Point",
                "coordinates": [
                    -52.34052,
                    68.74424
                ]
            },
            "properties": {
                "name": "Akunnaaq Heliport",
                "iata_code": "QCU",
                "icao_code": "BGAK",
                "country_code": "GL"
            }
        },
        {
            "type": "Feature",
            "geometry": {
                "type": "Point",
                "coordinates": [
                    5.30101,
                    7.24674
                ]
            },
            "properties": {
                "name": "Akure Airport",
                "iata_code": "AKR",
                "icao_code": "DNAK",
                "country_code": "NG"
            }
        },
        {
            "type": "Feature",
            "geometry": {
                "type": "Point",
                "coordinates": [
                    -18.0727,
                    65.65999
                ]
            },
            "properties": {
                "name": "Akureyri Airport",
                "iata_code": "AEY",
                "icao_code": "BIAR",
                "country_code": "IS"
            }
        },
        {
            "type": "Feature",
            "geometry": {
                "type": "Point",
                "coordinates": [
                    -165.77792,
                    54.13338
                ]
            },
            "properties": {
                "name": "Akutan Seaplane Base",
                "iata_code": "KQA",
                "icao_code": "PAUT",
                "country_code": "US"
            }
        },
        {
            "type": "Feature",
            "geometry": {
                "type": "Point",
                "coordinates": [
                    8.08577,
                    4.87649
                ]
            },
            "properties": {
                "name": "Akwa Ibom International Airport",
                "iata_code": "QUO",
                "icao_code": "DNAI",
                "country_code": "NG"
            }
        },
        {
            "type": "Feature",
            "geometry": {
                "type": "Point",
                "coordinates": [
                    92.87263,
                    20.13271
                ]
            },
            "properties": {
                "name": "Akyab",
                "iata_code": "AKY",
                "icao_code": "VYSW",
                "country_code": "MM"
            }
        },
        {
            "type": "Feature",
            "geometry": {
                "type": "Point",
                "coordinates": [
                    21.9643,
                    32.7887
                ]
            },
            "properties": {
                "name": "Al Abraq International Airport",
                "iata_code": "LAQ",
                "icao_code": "HLLQ",
                "country_code": "LY"
            }
        },
        {
            "type": "Feature",
            "geometry": {
                "type": "Point",
                "coordinates": [
                    49.48519,
                    25.28531
                ]
            },
            "properties": {
                "name": "Al Ahsa Airport",
                "iata_code": "HOF",
                "icao_code": "OEAH",
                "country_code": "SA"
            }
        },
        {
            "type": "Feature",
            "geometry": {
                "type": "Point",
                "coordinates": [
                    55.60917,
                    24.26167
                ]
            },
            "properties": {
                "name": "Al Ain International Airport",
                "iata_code": "AAN",
                "icao_code": "OMAL",
                "country_code": "AE"
            }
        },
        {
            "type": "Feature",
            "geometry": {
                "type": "Point",
                "coordinates": [
                    42.4411,
                    33.7856
                ]
            },
            "properties": {
                "name": "Al Asad Airbase",
                "iata_code": "IQA",
                "icao_code": "ORAA",
                "country_code": "IQ"
            }
        },
        {
            "type": "Feature",
            "geometry": {
                "type": "Point",
                "coordinates": [
                    41.64016,
                    20.29513
                ]
            },
            "properties": {
                "name": "Al-Baha Domestic Airport",
                "iata_code": "ABT",
                "icao_code": "OEBA",
                "country_code": "SA"
            }
        },
        {
            "type": "Feature",
            "geometry": {
                "type": "Point",
                "coordinates": [
                    45.44168,
                    14.1069
                ]
            },
            "properties": {
                "name": "Al Bayda Airport",
                "iata_code": "BYD",
                "icao_code": "OYBI",
                "country_code": "YE"
            }
        },
        {
            "type": "Feature",
            "geometry": {
                "type": "Point",
                "coordinates": [
                    54.54849,
                    24.24845
                ]
            },
            "properties": {
                "name": "Al Dhafra Air Base",
                "iata_code": "DHF",
                "icao_code": "OMAM",
                "country_code": "AE"
            }
        },
        {
            "type": "Feature",
            "geometry": {
                "type": "Point",
                "coordinates": [
                    43.5969,
                    33.3381
                ]
            },
            "properties": {
                "name": "Al Fallujah",
                "iata_code": "TQD",
                "icao_code": "ORAT",
                "country_code": "IQ"
            }
        },
        {
            "type": "Feature",
            "geometry": {
                "type": "Point",
                "coordinates": [
                    52.175,
                    16.1917
                ]
            },
            "properties": {
                "name": "Al Ghaidah International Airport",
                "iata_code": "AAY",
                "icao_code": "OYGD",
                "country_code": "YE"
            }
        },
        {
            "type": "Feature",
            "geometry": {
                "type": "Point",
                "coordinates": [
                    40.10001,
                    29.78513
                ]
            },
            "properties": {
                "name": "Al Jouf Domestic Airport",
                "iata_code": "AJF",
                "icao_code": "OESK",
                "country_code": "SA"
            }
        },
        {
            "type": "Feature",
            "geometry": {
                "type": "Point",
                "coordinates": [
                    55.36955,
                    25.02674
                ]
            },
            "properties": {
                "name": "Al Minhad Air Base",
                "iata_code": "NHD",
                "icao_code": "OMDM",
                "country_code": "AE"
            }
        },
        {
            "type": "Feature",
            "geometry": {
                "type": "Point",
                "coordinates": [
                    44.39622,
                    31.99152
                ]
            },
            "properties": {
                "name": "Al Najaf International Airport",
                "iata_code": "NJF",
                "icao_code": "ORNI",
                "country_code": "IQ"
            }
        },
        {
            "type": "Feature",
            "geometry": {
                "type": "Point",
                "coordinates": [
                    46.12472,
                    28.33556
                ]
            },
            "properties": {
                "name": "Al Qaisumah/Hafr Al Batin Airport",
                "iata_code": "AQI",
                "icao_code": "OEPA",
                "country_code": "SA"
            }
        },
        {
            "type": "Feature",
            "geometry": {
                "type": "Point",
                "coordinates": [
                    51.3,
                    25.11667
                ]
            },
            "properties": {
                "name": "Al Udeid",
                "iata_code": "XJD",
                "icao_code": "OTBH",
                "country_code": "QA"
            }
        },
        {
            "type": "Feature",
            "geometry": {
                "type": "Point",
                "coordinates": [
                    36.47638,
                    26.19855
                ]
            },
            "properties": {
                "name": "Al Wajh Domestic Airport",
                "iata_code": "EJH",
                "icao_code": "OEWJ",
                "country_code": "SA"
            }
        },
        {
            "type": "Feature",
            "geometry": {
                "type": "Point",
                "coordinates": [
                    81.26116,
                    40.4401
                ]
            },
            "properties": {
                "name": "Ala'er Talimu Airport",
                "iata_code": "ACF",
                "icao_code": "ZWAL",
                "country_code": "CN"
            }
        },
        {
            "type": "Feature",
            "geometry": {
                "type": "Point",
                "coordinates": [
                    -38.3802,
                    -12.1751
                ]
            },
            "properties": {
                "name": "Alagoinhas Airport",
                "iata_code": "QGS",
                "icao_code": "SDUO",
                "country_code": "BR"
            }
        },
        {
            "type": "Feature",
            "geometry": {
                "type": "Point",
                "coordinates": [
                    -164.64894,
                    62.67969
                ]
            },
            "properties": {
                "name": "Alakanuk Airport",
                "iata_code": "AUK",
                "icao_code": "PAUK",
                "country_code": "US"
            }
        },
        {
            "type": "Feature",
            "geometry": {
                "type": "Point",
                "coordinates": [
                    -105.99054,
                    32.83981
                ]
            },
            "properties": {
                "name": "Alamogordo-White Sands Regional Airport",
                "iata_code": "ALM",
                "icao_code": "KALM",
                "country_code": "US"
            }
        },
        {
            "type": "Feature",
            "geometry": {
                "type": "Point",
                "coordinates": [
                    97.86359,
                    3.39181
                ]
            },
            "properties": {
                "name": "Alas Leuser Airport",
                "iata_code": "LSR",
                "icao_code": "WILD",
                "country_code": "ID"
            }
        },
        {
            "type": "Feature",
            "geometry": {
                "type": "Point",
                "coordinates": [
                    -1.86352,
                    38.94853
                ]
            },
            "properties": {
                "name": "Albacete Airport",
                "iata_code": "ABC",
                "icao_code": "LEAB",
                "country_code": "ES"
            }
        },
        {
            "type": "Feature",
            "geometry": {
                "type": "Point",
                "coordinates": [
                    15.76055,
                    -12.80888
                ]
            },
            "properties": {
                "name": "Albano Machado Airport",
                "iata_code": "NOV",
                "icao_code": "FNHU",
                "country_code": "AO"
            }
        },
        {
            "type": "Feature",
            "geometry": {
                "type": "Point",
                "coordinates": [
                    117.80806,
                    -34.94583
                ]
            },
            "properties": {
                "name": "Albany Aerodrome",
                "iata_code": "ALH",
                "icao_code": "YABA",
                "country_code": "AU"
            }
        },
        {
            "type": "Feature",
            "geometry": {
                "type": "Point",
                "coordinates": [
                    -73.80234,
                    42.74813
                ]
            },
            "properties": {
                "name": "Albany County Airport",
                "iata_code": "ALB",
                "icao_code": "KALB",
                "country_code": "US"
            }
        },
        {
            "type": "Feature",
            "geometry": {
                "type": "Point",
                "coordinates": [
                    -77.60609,
                    34.83051
                ]
            },
            "properties": {
                "name": "Albert J Ellis Airport",
                "iata_code": "OAJ",
                "icao_code": "KOAJ",
                "country_code": "US"
            }
        },
        {
            "type": "Feature",
            "geometry": {
                "type": "Point",
                "coordinates": [
                    -93.36743,
                    43.68135
                ]
            },
            "properties": {
                "name": "Albert Lea Municipal Airport",
                "iata_code": "AEL",
                "icao_code": "KAEL",
                "country_code": "US"
            }
        },
        {
            "type": "Feature",
            "geometry": {
                "type": "Point",
                "coordinates": [
                    2.69839,
                    49.97157
                ]
            },
            "properties": {
                "name": "Albert - Picardie Airport",
                "iata_code": "BYF",
                "icao_code": "LFAQ",
                "country_code": "FR"
            }
        },
        {
            "type": "Feature",
            "geometry": {
                "type": "Point",
                "coordinates": [
                    -82.62837,
                    27.7641
                ]
            },
            "properties": {
                "name": "Albert Whitted Airport",
                "iata_code": "SPG",
                "icao_code": "KSPG",
                "country_code": "US"
            }
        },
        {
            "type": "Feature",
            "geometry": {
                "type": "Point",
                "coordinates": [
                    -71.16119,
                    8.58229
                ]
            },
            "properties": {
                "name": "Alberto Carnevalli Airport",
                "iata_code": "MRD",
                "icao_code": "SVMD",
                "country_code": "VE"
            }
        },
        {
            "type": "Feature",
            "geometry": {
                "type": "Point",
                "coordinates": [
                    -79.99794,
                    21.788
                ]
            },
            "properties": {
                "name": "Alberto Delgado Airport",
                "iata_code": "TND",
                "icao_code": "MUTD",
                "country_code": "CU"
            }
        },
        {
            "type": "Feature",
            "geometry": {
                "type": "Point",
                "coordinates": [
                    -89.58178,
                    42.24641
                ]
            },
            "properties": {
                "name": "Albertus Airport",
                "iata_code": "FEP",
                "icao_code": "KFEP",
                "country_code": "US"
            }
        },
        {
            "type": "Feature",
            "geometry": {
                "type": "Point",
                "coordinates": [
                    6.33,
                    45.627
                ]
            },
            "properties": {
                "name": "Albertville",
                "iata_code": "XAV",
                "icao_code": "LFKA",
                "country_code": "FR"
            }
        },
        {
            "type": "Feature",
            "geometry": {
                "type": "Point",
                "coordinates": [
                    2.11306,
                    43.91389
                ]
            },
            "properties": {
                "name": "Albi-Le Sequestre",
                "iata_code": "LBI",
                "icao_code": "LFCI",
                "country_code": "FR"
            }
        },
        {
            "type": "Feature",
            "geometry": {
                "type": "Point",
                "coordinates": [
                    -54.05012,
                    5.51279
                ]
            },
            "properties": {
                "name": "Albina Airstrip",
                "iata_code": "ABN",
                "icao_code": "SMBN",
                "country_code": "SR"
            }
        },
        {
            "type": "Feature",
            "geometry": {
                "type": "Point",
                "coordinates": [
                    -79.55558,
                    8.97334
                ]
            },
            "properties": {
                "name": "Albrook \"Marcos A. Gelabert\" International Airport",
                "iata_code": "PAC",
                "icao_code": "MPMG",
                "country_code": "PA"
            }
        },
        {
            "type": "Feature",
            "geometry": {
                "type": "Point",
                "coordinates": [
                    44.625,
                    17.35
                ]
            },
            "properties": {
                "name": "Albuq Airport",
                "iata_code": "BUK",
                "icao_code": "OYBQ",
                "country_code": "YE"
            }
        },
        {
            "type": "Feature",
            "geometry": {
                "type": "Point",
                "coordinates": [
                    -106.60697,
                    35.04199
                ]
            },
            "properties": {
                "name": "Albuquerque International Airport",
                "iata_code": "ABQ",
                "icao_code": "KABQ",
                "country_code": "US"
            }
        },
        {
            "type": "Feature",
            "geometry": {
                "type": "Point",
                "coordinates": [
                    146.95806,
                    -36.06778
                ]
            },
            "properties": {
                "name": "Albury Airport",
                "iata_code": "ABX",
                "icao_code": "YMAY",
                "country_code": "AU"
            }
        },
        {
            "type": "Feature",
            "geometry": {
                "type": "Point",
                "coordinates": [
                    -65.14884,
                    -19.24058
                ]
            },
            "properties": {
                "name": "Alcantari International Airport",
                "iata_code": "SRE",
                "icao_code": "SLAL",
                "country_code": "BO"
            }
        },
        {
            "type": "Feature",
            "geometry": {
                "type": "Point",
                "coordinates": [
                    -77.274,
                    8.498
                ]
            },
            "properties": {
                "name": "Alcides Fernandez Airport",
                "iata_code": "ACD",
                "icao_code": "SKAD",
                "country_code": "CO"
            }
        },
        {
            "type": "Feature",
            "geometry": {
                "type": "Point",
                "coordinates": [
                    125.4073,
                    58.60317
                ]
            },
            "properties": {
                "name": "Aldan Airport",
                "iata_code": "ADH",
                "icao_code": "UEEA",
                "country_code": "RU"
            }
        },
        {
            "type": "Feature",
            "geometry": {
                "type": "Point",
                "coordinates": [
                    -2.21553,
                    49.70662
                ]
            },
            "properties": {
                "name": "Alderney Airport",
                "iata_code": "ACI",
                "icao_code": "EGJA",
                "country_code": "GG"
            }
        },
        {
            "type": "Feature",
            "geometry": {
                "type": "Point",
                "coordinates": [
                    -55.89273,
                    -29.81347
                ]
            },
            "properties": {
                "name": "Alegrete Novo Airport",
                "iata_code": "ALQ",
                "icao_code": "SSLT",
                "country_code": "BR"
            }
        },
        {
            "type": "Feature",
            "geometry": {
                "type": "Point",
                "coordinates": [
                    -71.93878,
                    -13.53572
                ]
            },
            "properties": {
                "name": "Alejandro Velasco Astete International Airport",
                "iata_code": "CUZ",
                "icao_code": "SPZO",
                "country_code": "PE"
            }
        },
        {
            "type": "Feature",
            "geometry": {
                "type": "Point",
                "coordinates": [
                    0.10832,
                    48.44663
                ]
            },
            "properties": {
                "name": "Alencon Valframbert Airport",
                "iata_code": "XAN",
                "icao_code": "LFOF",
                "country_code": "FR"
            }
        },
        {
            "type": "Feature",
            "geometry": {
                "type": "Point",
                "coordinates": [
                    37.22436,
                    36.18068
                ]
            },
            "properties": {
                "name": "Aleppo International Airport",
                "iata_code": "ALP",
                "icao_code": "OSAP",
                "country_code": "SY"
            }
        },
        {
            "type": "Feature",
            "geometry": {
                "type": "Point",
                "coordinates": [
                    -126.916,
                    50.5822
                ]
            },
            "properties": {
                "name": "Alert Bay Airport",
                "iata_code": "YAL",
                "icao_code": "CYAL",
                "country_code": "CA"
            }
        },
        {
            "type": "Feature",
            "geometry": {
                "type": "Point",
                "coordinates": [
                    -62.28056,
                    82.51778
                ]
            },
            "properties": {
                "name": "Alert Airport",
                "iata_code": "YLT",
                "icao_code": "CYLT",
                "country_code": "CA"
            }
        },
        {
            "type": "Feature",
            "geometry": {
                "type": "Point",
                "coordinates": [
                    -69.22942,
                    -11.65018
                ]
            },
            "properties": {
                "name": "Alerta Airport",
                "iata_code": "ALD",
                "icao_code": "SPAR",
                "country_code": "PE"
            }
        },
        {
            "type": "Feature",
            "geometry": {
                "type": "Point",
                "coordinates": [
                    8.626728,
                    44.925635
                ]
            },
            "properties": {
                "name": "Alessandria Airfield",
                "iata_code": "QAL",
                "icao_code": "LILA",
                "country_code": "IT"
            }
        },
        {
            "type": "Feature",
            "geometry": {
                "type": "Point",
                "coordinates": [
                    6.11016,
                    62.56037
                ]
            },
            "properties": {
                "name": "Alesund Airport, Vigra",
                "iata_code": "AES",
                "icao_code": "ENAL",
                "country_code": "NO"
            }
        },
        {
            "type": "Feature",
            "geometry": {
                "type": "Point",
                "coordinates": [
                    16.53333,
                    -28.575
                ]
            },
            "properties": {
                "name": "Alexander Bay Airport",
                "iata_code": "ALJ",
                "icao_code": "FAAB",
                "country_code": "ZA"
            }
        },
        {
            "type": "Feature",
            "geometry": {
                "type": "Point",
                "coordinates": [
                    -89.83277,
                    44.36082
                ]
            },
            "properties": {
                "name": "Alexander Field South Wood County Airport",
                "iata_code": "ISW",
                "icao_code": "KISW",
                "country_code": "US"
            }
        },
        {
            "type": "Feature",
            "geometry": {
                "type": "Point",
                "coordinates": [
                    169.37038,
                    -45.21083
                ]
            },
            "properties": {
                "name": "Alexandra",
                "iata_code": "ALR",
                "icao_code": "NZLX",
                "country_code": "NZ"
            }
        },
        {
            "type": "Feature",
            "geometry": {
                "type": "Point",
                "coordinates": [
                    29.69641,
                    30.91767
                ]
            },
            "properties": {
                "name": "Alexandria Borg El Arab Airport",
                "iata_code": "HBE",
                "icao_code": "HEBA",
                "country_code": "EG"
            }
        },
        {
            "type": "Feature",
            "geometry": {
                "type": "Point",
                "coordinates": [
                    -92.29569,
                    31.3949
                ]
            },
            "properties": {
                "name": "Alexandria Esler Regional Airport",
                "iata_code": "ESF",
                "icao_code": "KESF",
                "country_code": "US"
            }
        },
        {
            "type": "Feature",
            "geometry": {
                "type": "Point",
                "coordinates": [
                    136.71001,
                    -19.0602
                ]
            },
            "properties": {
                "name": "Alexandria Homestead Airport",
                "iata_code": "AXL",
                "icao_code": "YALX",
                "country_code": "AU"
            }
        },
        {
            "type": "Feature",
            "geometry": {
                "type": "Point",
                "coordinates": [
                    -92.5429,
                    31.32243
                ]
            },
            "properties": {
                "name": "Alexandria International Airport",
                "iata_code": "AEX",
                "icao_code": "KAEX",
                "country_code": "US"
            }
        },
        {
            "type": "Feature",
            "geometry": {
                "type": "Point",
                "coordinates": [
                    29.94889,
                    31.1839
                ]
            },
            "properties": {
                "name": "Alexandria / Nouzha Airport",
                "iata_code": "ALY",
                "icao_code": "HEAX",
                "country_code": "EG"
            }
        },
        {
            "type": "Feature",
            "geometry": {
                "type": "Point",
                "coordinates": [
                    25.95626,
                    40.85587
                ]
            },
            "properties": {
                "name": "Alexandroupoli Airport",
                "iata_code": "AXD",
                "icao_code": "LGAL",
                "country_code": "GR"
            }
        },
        {
            "type": "Feature",
            "geometry": {
                "type": "Point",
                "coordinates": [
                    -76.46562,
                    -2.79671
                ]
            },
            "properties": {
                "name": "Alferez FAP Alfredo Vladimir Sara Bauer Airport",
                "iata_code": "AOP",
                "icao_code": "SPAS",
                "country_code": "PE"
            }
        },
        {
            "type": "Feature",
            "geometry": {
                "type": "Point",
                "coordinates": [
                    -76.2048,
                    -9.87881
                ]
            },
            "properties": {
                "name": "Alferez FAP David Figueroa Fernandini Airport",
                "iata_code": "HUU",
                "icao_code": "SPNC",
                "country_code": "PE"
            }
        },
        {
            "type": "Feature",
            "geometry": {
                "type": "Point",
                "coordinates": [
                    -69.94316,
                    -4.19355
                ]
            },
            "properties": {
                "name": "Alfredo Vasquez Cobo International Airport",
                "iata_code": "LET",
                "icao_code": "SKLT",
                "country_code": "CO"
            }
        },
        {
            "type": "Feature",
            "geometry": {
                "type": "Point",
                "coordinates": [
                    -5.44107,
                    36.12881
                ]
            },
            "properties": {
                "name": "Algeciras Heliport",
                "iata_code": "AEI",
                "icao_code": "LEAG",
                "country_code": "ES"
            }
        },
        {
            "type": "Feature",
            "geometry": {
                "type": "Point",
                "coordinates": [
                    8.29077,
                    40.63213
                ]
            },
            "properties": {
                "name": "Alghero-Fertilia Airport",
                "iata_code": "AHO",
                "icao_code": "LIEA",
                "country_code": "IT"
            }
        },
        {
            "type": "Feature",
            "geometry": {
                "type": "Point",
                "coordinates": [
                    3.20672,
                    36.6985
                ]
            },
            "properties": {
                "name": "Algiers Houari Boumediene Airport",
                "iata_code": "ALG",
                "icao_code": "DAAG",
                "country_code": "DZ"
            }
        },
        {
            "type": "Feature",
            "geometry": {
                "type": "Point",
                "coordinates": [
                    -94.27191,
                    43.07774
                ]
            },
            "properties": {
                "name": "Algona Municipal Airport",
                "iata_code": "AXG",
                "icao_code": "KAXA",
                "country_code": "US"
            }
        },
        {
            "type": "Feature",
            "geometry": {
                "type": "Point",
                "coordinates": [
                    46.09001,
                    30.93556
                ]
            },
            "properties": {
                "name": "Ali Base",
                "iata_code": "XNH",
                "icao_code": "ORTL",
                "country_code": "IQ"
            }
        },
        {
            "type": "Feature",
            "geometry": {
                "type": "Point",
                "coordinates": [
                    81.13861,
                    30.3975
                ]
            },
            "properties": {
                "name": "Ali Pulan Airport",
                "iata_code": "APJ",
                "icao_code": "ZUPL",
                "country_code": "CN"
            }
        },
        {
            "type": "Feature",
            "geometry": {
                "type": "Point",
                "coordinates": [
                    42.718,
                    11.147
                ]
            },
            "properties": {
                "name": "Ali-Sabieh Airport",
                "iata_code": "AII",
                "icao_code": "HDAS",
                "country_code": "DJ"
            }
        },
        {
            "type": "Feature",
            "geometry": {
                "type": "Point",
                "coordinates": [
                    -0.55816,
                    38.28217
                ]
            },
            "properties": {
                "name": "Alicante-Elche Airport",
                "iata_code": "ALC",
                "icao_code": "LEAL",
                "country_code": "ES"
            }
        },
        {
            "type": "Feature",
            "geometry": {
                "type": "Point",
                "coordinates": [
                    -98.02722,
                    27.74114
                ]
            },
            "properties": {
                "name": "Alice International Airport",
                "iata_code": "ALI",
                "icao_code": "KALI",
                "country_code": "US"
            }
        },
        {
            "type": "Feature",
            "geometry": {
                "type": "Point",
                "coordinates": [
                    133.90038,
                    -23.80364
                ]
            },
            "properties": {
                "name": "Alice Springs Airport",
                "iata_code": "ASP",
                "icao_code": "YBAS",
                "country_code": "AU"
            }
        },
        {
            "type": "Feature",
            "geometry": {
                "type": "Point",
                "coordinates": [
                    124.75278,
                    6.36733
                ]
            },
            "properties": {
                "name": "Allah Valley Airport",
                "iata_code": "AAV",
                "icao_code": "RPMA",
                "country_code": "PH"
            }
        },
        {
            "type": "Feature",
            "geometry": {
                "type": "Point",
                "coordinates": [
                    81.73387,
                    25.44006
                ]
            },
            "properties": {
                "name": "Allahabad Airport",
                "iata_code": "IXD",
                "icao_code": "VEAB",
                "country_code": "IN"
            }
        },
        {
            "type": "Feature",
            "geometry": {
                "type": "Point",
                "coordinates": [
                    -152.63136,
                    66.54959
                ]
            },
            "properties": {
                "name": "Allakaket Airport",
                "iata_code": "AET",
                "icao_code": "PFAL",
                "country_code": "US"
            }
        },